[{
    "id": "GWZBWX8HZBHZA",
    "name": "Foot Locker 07532",
    "internalName": "Foot Locker 07532",
    "address": {
        "line1": "3543 Simpson Ferry Rd",
        "city": "Camp Hill",
        "state": "PA",
        "country": "US",
        "postalCode": "17011"
    },
    "latitude": -76.931129,
    "longitude": 40.240101,
    "availability": "open",
    "mobility": "fixed",
    "tabType": "none",
    "tabExtensionType": "none",
    "gratuityType": "standard",
    "category_names": [],
    "createDate": "2020-11-19T18:38:50.000",
    "updateDate": "2020-11-19T18:38:51.000",
    "status": "active",
    "correlationId": "7f8e03ee416b7",
    "links": []
},
{
    "name": "Foot Locker 07532",
    "internalName": "Foot Locker 07532",
    "mobility": "fixed",    
    "address": {
        "line1": "3543 Simpson Ferry Rd",        
        "city": "Camp Hill",        
        "state": "PA",        
        "postalCode": "17011",        
        "country": "US"    
    },
    "latitude": -76.931129,    
    "longitude": 40.240101,    
    "tabType": "none",    
    "availability": "open",    
    "gratuityType": "STANDARD"
}, {
    "id": "N7SYXZWHHVW3S",
    "name": "Foot Locker 08011",
    "internalName": "Foot Locker 08011",
    "address": {
        "line1": "3543 Simpson Ferry Rd",
        "city": "Camp Hill",
        "state": "PA",
        "country": "US",
        "postalCode": "17011"
    },
    "latitude": -76.931129,
    "longitude": 40.240101,
    "availability": "open",
    "mobility": "fixed",
    "tabType": "none",
    "tabExtensionType": "none",
    "gratuityType": "standard",
    "category_names": [],
    "createDate": "2020-11-19T18:39:53.000",
    "updateDate": "2020-11-19T18:39:53.000",
    "status": "active",
    "correlationId": "667a9d864a72c",
    "links": []
},
{
    "id": "KMXR5UJLWXXWS",
    "name": "Foot Locker 08288",
    "internalName": "Foot Locker 08288",
    "address": {
        "line1": "3543 Simpson Ferry Rd",
        "city": "Camp Hill",
        "state": "PA",
        "country": "US",
        "postalCode": "17011"
    },
    "latitude": -76.931129,
    "longitude": 40.240101,
    "availability": "open",
    "mobility": "fixed",
    "tabType": "none",
    "tabExtensionType": "none",
    "gratuityType": "standard",
    "category_names": [],
    "createDate": "2020-11-19T18:40:43.000",
    "updateDate": "2020-11-19T18:40:44.000",
    "status": "active",
    "correlationId": "667a9d864a72c",
    "links": []
},
{
    "id": "3TCGEPBP6EYTU",
    "name": "Foot Locker 08586",
    "internalName": "Foot Locker 08586",
    "address": {
        "line1": "3543 Simpson Ferry Rd",
        "city": "Camp Hill",
        "state": "PA",
        "country": "US",
        "postalCode": "17011"
    },
    "latitude": -76.931129,
    "longitude": 40.240101,
    "availability": "open",
    "mobility": "fixed",
    "tabType": "none",
    "tabExtensionType": "none",
    "gratuityType": "standard",
    "category_names": [],
    "createDate": "2020-11-19T18:42:01.000",
    "updateDate": "2020-11-19T18:42:01.000",
    "status": "active",
    "correlationId": "667a9d864a72c",
    "links": []
},
{
    "id": "KYRWQJPLBPEZS",
    "name": "Foot Locker 08877",
    "internalName": "Foot Locker 08877",
    "address": {
        "line1": "3567 Capital City Mall Drive",
        "city": "Camp Hill",
        "state": "PA",
        "country": "US",
        "postalCode": "17011"
    },
    "latitude": -76.932974,
    "longitude": 40.224214,
    "availability": "open",
    "mobility": "fixed",
    "tabType": "none",
    "tabExtensionType": "none",
    "gratuityType": "standard",
    "category_names": [],
    "createDate": "2020-11-19T18:42:35.000",
    "updateDate": "2020-12-11T18:31:28.000",
    "status": "active",
    "correlationId": "667a9d864a72c",
    "links": []
},
{
    "id": "FRN7ZPUYPU7BN",
    "name": "Foot Locker 25066",
    "internalName": "Foot Locker 25066",
    "address": {
        "line1": "3543 Simpson Ferry Rd",
        "city": "Camp Hill",
        "state": "PA",
        "country": "US",
        "postalCode": "17011"
    },
    "latitude": -76.931129,
    "longitude": 40.240101,
    "availability": "open",
    "mobility": "fixed",
    "tabType": "none",
    "tabExtensionType": "none",
    "gratuityType": "standard",
    "category_names": [],
    "createDate": "2020-11-19T18:43:06.000",
    "updateDate": "2020-11-19T18:43:06.000",
    "status": "active",
    "correlationId": "667a9d864a72c",
    "links": []
},
{
    "id": "H47ENZPAM89PL",
    "name": "Kids Foot Locker 46449",
    "internalName": "Kids Foot Locker 46449",
    "address": {
        "line1": "3543 Simpson Ferry Rd",
        "city": "Camp Hill",
        "state": "PA",
        "country": "US",
        "postalCode": "17011"
    },
    "latitude": -76.931129,
    "longitude": 40.240101,
    "availability": "open",
    "mobility": "fixed",
    "tabType": "none",
    "tabExtensionType": "none",
    "gratuityType": "standard",
    "category_names": [],
    "createDate": "2020-11-19T18:43:47.000",
    "updateDate": "2020-11-19T18:43:48.000",
    "status": "active",
    "correlationId": "667a9d864a72c",
    "links": []
},
{
    "id": "EN9JN2SL3SVNQ",
    "name": "Kids Foot Locker 48578",
    "internalName": "Kids Foot Locker 48578",
    "address": {
        "line1": "3543 Simpson Ferry Rd",
        "city": "Camp Hill",
        "state": "PA",
        "country": "US",
        "postalCode": "17011"
    },
    "latitude": -76.931129,
    "longitude": 40.240101,
    "availability": "open",
    "mobility": "fixed",
    "tabType": "none",
    "tabExtensionType": "none",
    "gratuityType": "standard",
    "category_names": [],
    "createDate": "2020-11-19T18:44:09.000",
    "updateDate": "2020-11-19T18:44:10.000",
    "status": "active",
    "correlationId": "667a9d864a72c",
    "links": []
}]